{"type": "FeatureCollection", "features": [{"type": "Feature", "geometry": {"type": "Point", "coordinates": [-77.54673805706356, 39.14479232347814]}, "properties": {"osm_id": 149975007, "name": "North Spring Behavioral Healthcare"}}, {"type": "Feature", "geometry": {"type": "Point", "coordinates": [-78.19190352163595, 39.19582072512831]}, "properties": {"osm_id": -2834661, "name": "ValleyHealth Winchester Medical Center"}}, {"type": "Feature", "geometry": {"type": "Point", "coordinates": [-80.10980653911142, 37.39243718129375]}, "properties": {"osm_id": 518030521, "name": "Catawba Hospital"}}, {"type": "Feature", "geometry": {"type": "Point", "coordinates": [-82.0782653611275, 36.898456158917256]}, "properties": {"osm_id": 518462304, "name": "Russell County Hospital"}}, {"type": "Feature", "geometry": {"type": "Point", "coordinates": [-81.0967845740161, 36.954697871123244]}, "properties": {"osm_id": 518397572, "name": "Wythe County Community Hospital"}}, {"type": "Feature", "geometry": {"type": "Point", "coordinates": [-79.4048206572232, 36.57747252719956]}, "properties": {"osm_id": 517433169, "name": "Sovah Health - Danville"}}, {"type": "Feature", "geometry": {"type": "Point", "coordinates": [-79.41029087871718, 36.55507222429479]}, "properties": {"osm_id": 517433167, "name": "Southern Virginia Mental Health Institute"}}, {"type": "Feature", "geometry": {"type": "Point", "coordinates": [-79.40481066508666, 36.64473246919939]}, "properties": {"osm_id": 668194108, "name": "The Hughes Center"}}, {"type": "Feature", "geometry": {"type": "Point", "coordinates": [-79.89028608862598, 36.993710375475054]}, "properties": {"osm_id": 517464447, "name": "Carilion Franklin Memorial Hospital"}}, {"type": "Feature", "geometry": {"type": "Point", "coordinates": [-79.94128948466359, 37.25126073497877]}, "properties": {"osm_id": -7127531, "name": "Carilion Roanoke Memorial Hospital"}}, {"type": "Feature", "geometry": {"type": "Point", "coordinates": [-79.93966325077142, 37.26545131820675]}, "properties": {"osm_id": 515613354, "name": "Carilion Roanoke Community Hospital"}}, {"type": "Feature", "geometry": {"type": "Point", "coordinates": [-79.91307915230476, 37.41486669963434]}, "properties": {"osm_id": 636070796, "name": null}}, {"type": "Feature", "geometry": {"type": "Point", "coordinates": [-79.51748874239574, 37.35196224284575]}, "properties": {"osm_id": 604007665, "name": "Centra Bedford Memorial Hospital"}}, {"type": "Feature", "geometry": {"type": "Point", "coordinates": [-79.18746716235643, 37.437570807229626]}, "properties": {"osm_id": 515361224, "name": "Centra Virginia Baptist Hospital"}}, {"type": "Feature", "geometry": {"type": "Point", "coordinates": [-79.88123964264133, 37.79202890676059]}, "properties": {"osm_id": 518020218, "name": "LewisGale Hospital Alleghany"}}, {"type": "Feature", "geometry": {"type": "Point", "coordinates": [-79.83177806775149, 37.99253841177725]}, "properties": {"osm_id": 604096538, "name": "Bath Community Hospital"}}, {"type": "Feature", "geometry": {"type": "Point", "coordinates": [-78.85599826057943, 38.405000973249884]}, "properties": {"osm_id": 517778184, "name": "Sentara RMH Medical Center"}}, {"type": "Feature", "geometry": {"type": "Point", "coordinates": [-78.66770063166237, 38.65336003083093]}, "properties": {"osm_id": 1068306002, "name": null}}, {"type": "Feature", "geometry": {"type": "Point", "coordinates": [-78.15318807404643, 38.919950287339844]}, "properties": {"osm_id": 1104937822, "name": null}}, {"type": "Feature", "geometry": {"type": "Point", "coordinates": [-78.01325952685846, 38.45523820509517]}, "properties": {"osm_id": 517749692, "name": "Culpeper Medical Center"}}, {"type": "Feature", "geometry": {"type": "Point", "coordinates": [-78.52561896586838, 38.024459172561464]}, "properties": {"osm_id": 157034592, "name": "UVA HealthSouth Rehabilitation Hospital"}}, {"type": "Feature", "geometry": {"type": "Point", "coordinates": [-78.40413504679407, 37.30272524226797]}, "properties": {"osm_id": 82881605, "name": "Centra Southside Community Hospital"}}, {"type": "Feature", "geometry": {"type": "Point", "coordinates": [-77.45117179338578, 37.20932542481753]}, "properties": {"osm_id": 45061747, "name": "Central State Hospital"}}, {"type": "Feature", "geometry": {"type": "Point", "coordinates": [-77.67830130000239, 37.40231680738959]}, "properties": {"osm_id": 683572790, "name": "HCA - Swift Creek Emergency Center"}}, {"type": "Feature", "geometry": {"type": "Point", "coordinates": [-77.65953579458973, 37.46678185722362]}, "properties": {"osm_id": 236067321, "name": "Bon Secours Saint Francis Medical Center"}}, {"type": "Feature", "geometry": {"type": "Point", "coordinates": [-77.5953334064144, 37.51080671399724]}, "properties": {"osm_id": 517046782, "name": "Johnston-Willis Hospital"}}, {"type": "Feature", "geometry": {"type": "Point", "coordinates": [-77.4662695057196, 37.496157808086174]}, "properties": {"osm_id": 46843109, "name": "Hunter Holmes McGuire Veterans Administration Medical Center"}}, {"type": "Feature", "geometry": {"type": "Point", "coordinates": [-77.18721660914062, 37.50614616951559]}, "properties": {"osm_id": 761314680, "name": "VCU Trauma Center"}}, {"type": "Feature", "geometry": {"type": "Point", "coordinates": [-76.73580088999859, 37.2920641399919]}, "properties": {"osm_id": -5406969, "name": "Eastern State Hospital"}}, {"type": "Feature", "geometry": {"type": "Point", "coordinates": [-76.74454955702892, 37.290797822312065]}, "properties": {"osm_id": -5406969, "name": "Eastern State Hospital"}}, {"type": "Feature", "geometry": {"type": "Point", "coordinates": [-76.9784335131413, 37.546813176352224]}, "properties": {"osm_id": 604074882, "name": "Cumberland Hospital for Children and Adolescents"}}, {"type": "Feature", "geometry": {"type": "Point", "coordinates": [-77.399015875152, 37.651979990982795]}, "properties": {"osm_id": 628662916, "name": "Hanover Emergency Center"}}, {"type": "Feature", "geometry": {"type": "Point", "coordinates": [-77.49601778754314, 38.217733979743336]}, "properties": {"osm_id": 516489434, "name": "Spotsylvania Regional Medical Center"}}, {"type": "Feature", "geometry": {"type": "Point", "coordinates": [-77.35690994222675, 38.96545191769746]}, "properties": {"osm_id": 79613314, "name": "Inova Medical Center - Reston"}}, {"type": "Feature", "geometry": {"type": "Point", "coordinates": [-77.15844360479853, 38.870257422696774]}, "properties": {"osm_id": 516241327, "name": "Dominion Hospital"}}, {"type": "Feature", "geometry": {"type": "Point", "coordinates": [-77.22793503004839, 38.85725911062716]}, "properties": {"osm_id": 516393904, "name": "Inova Fairfax Hospital"}}, {"type": "Feature", "geometry": {"type": "Point", "coordinates": [-77.23214935688262, 38.85772007600521]}, "properties": {"osm_id": 516393895, "name": "Northern Virginia Mental Health Institute"}}, {"type": "Feature", "geometry": {"type": "Point", "coordinates": [-77.07698918515426, 38.739612386404865]}, "properties": {"osm_id": 516261735, "name": "Inova Mount Vernon Hospital"}}, {"type": "Feature", "geometry": {"type": "Point", "coordinates": [-75.72308470062009, 37.69763155772974]}, "properties": {"osm_id": 730430629, "name": null}}, {"type": "Feature", "geometry": {"type": "Point", "coordinates": [-75.72376410065496, 37.69698655168117]}, "properties": {"osm_id": -10104357, "name": "Riverside Shore Memorial Hospital"}}, {"type": "Feature", "geometry": {"type": "Point", "coordinates": [-76.38755645951328, 37.70115269337161]}, "properties": {"osm_id": 516501602, "name": "Rappahannock General Hospital"}}, {"type": "Feature", "geometry": {"type": "Point", "coordinates": [-76.51116803707505, 37.14426767106651]}, "properties": {"osm_id": 50945901, "name": "Bon Secours Mary Immaculate Hospital"}}, {"type": "Feature", "geometry": {"type": "Point", "coordinates": [-76.32004840711518, 36.838090657694664]}, "properties": {"osm_id": 693517514, "name": "First Home Care"}}, {"type": "Feature", "geometry": {"type": "Point", "coordinates": [-76.30577179953885, 36.85852487796714]}, "properties": {"osm_id": -11269576, "name": "Children's Hospital of the King's Daughters"}}, {"type": "Feature", "geometry": {"type": "Point", "coordinates": [-76.30577179953885, 36.85852487796714]}, "properties": {"osm_id": 822796398, "name": null}}, {"type": "Feature", "geometry": {"type": "Point", "coordinates": [-76.30937161214324, 36.86698225085713]}, "properties": {"osm_id": -11269576, "name": "Children's Hospital of the King's Daughters"}}, {"type": "Feature", "geometry": {"type": "Point", "coordinates": [-76.30329761953479, 36.86258458511722]}, "properties": {"osm_id": -11269660, "name": "Sentara Norfolk General Hospital"}}, {"type": "Feature", "geometry": {"type": "Point", "coordinates": [-76.30192583283322, 36.86209146502031]}, "properties": {"osm_id": -11269576, "name": "Children's Hospital of the King's Daughters"}}, {"type": "Feature", "geometry": {"type": "Point", "coordinates": [-76.30102064396957, 36.863555535670336]}, "properties": {"osm_id": -11269576, "name": "Children's Hospital of the King's Daughters"}}, {"type": "Feature", "geometry": {"type": "Point", "coordinates": [-76.30211394041079, 36.86406025306279]}, "properties": {"osm_id": -11269576, "name": "Children's Hospital of the King's Daughters"}}, {"type": "Feature", "geometry": {"type": "Point", "coordinates": [-76.30333349461579, 36.86449654593918]}, "properties": {"osm_id": -11269576, "name": "Children's Hospital of the King's Daughters"}}, {"type": "Feature", "geometry": {"type": "Point", "coordinates": [-76.09747600567705, 36.77582241732641]}, "properties": {"osm_id": 412279436, "name": "Sentara Princess Anne Hospital"}}, {"type": "Feature", "geometry": {"type": "Point", "coordinates": [-76.20600113409785, 36.86711808210063]}, "properties": {"osm_id": 397878148, "name": "Lake Taylor Transitional Care Hospital"}}, {"type": "Feature", "geometry": {"type": "Point", "coordinates": [-76.35751315088326, 37.07398254447147]}, "properties": {"osm_id": 344024165, "name": "Langley Hospital"}}, {"type": "Feature", "geometry": {"type": "Point", "coordinates": [-76.48837330315021, 37.10392125132382]}, "properties": {"osm_id": 610943425, "name": null}}, {"type": "Feature", "geometry": {"type": "Point", "coordinates": [-76.48425810147991, 37.08446991831688]}, "properties": {"osm_id": 325122946, "name": "Sentara Port Warwick"}}, {"type": "Feature", "geometry": {"type": "Point", "coordinates": [-77.5375135963289, 36.70172104102793]}, "properties": {"osm_id": 517084933, "name": "Southern Virginia Regional Medical Center"}}, {"type": "Feature", "geometry": {"type": "Point", "coordinates": [-77.47770177680677, 39.07442811494588]}, "properties": {"osm_id": 515950443, "name": "Inova Loudoun Hospital"}}, {"type": "Feature", "geometry": {"type": "Point", "coordinates": [-80.41194818562263, 37.187675425728465]}, "properties": {"osm_id": 76692183, "name": "LewisGale Hospital Montgomery"}}, {"type": "Feature", "geometry": {"type": "Point", "coordinates": [-80.72252703320508, 37.32236205321776]}, "properties": {"osm_id": 814271732, "name": "Carilion Giles Memorial Hospital"}}, {"type": "Feature", "geometry": {"type": "Point", "coordinates": [-80.71282650835359, 37.33298093725413]}, "properties": {"osm_id": 518157076, "name": "Carilion Giles Community Hospital"}}, {"type": "Feature", "geometry": {"type": "Point", "coordinates": [-82.62548214546625, 36.94407759696349]}, "properties": {"osm_id": 518641254, "name": "Mountain View Regional Medical Center"}}, {"type": "Feature", "geometry": {"type": "Point", "coordinates": [-82.64221925114174, 36.933258677480076]}, "properties": {"osm_id": 518641248, "name": "Norton Community Hospital"}}, {"type": "Feature", "geometry": {"type": "Point", "coordinates": [-81.48929893967765, 37.123778349625475]}, "properties": {"osm_id": 518426210, "name": "Carilion Tazewell Community Hospital"}}, {"type": "Feature", "geometry": {"type": "Point", "coordinates": [-81.48846094001601, 36.85175210843132]}, "properties": {"osm_id": 515725979, "name": "Smyth County Community Hospital"}}, {"type": "Feature", "geometry": {"type": "Point", "coordinates": [-80.50540962889536, 37.088702105159086]}, "properties": {"osm_id": 474226387, "name": "Carilion Clinic Saint Albans Hospital"}}, {"type": "Feature", "geometry": {"type": "Point", "coordinates": [-80.50517137910124, 37.08855928447461]}, "properties": {"osm_id": 518149748, "name": "Carilion New River Valley Medical Center"}}, {"type": "Feature", "geometry": {"type": "Point", "coordinates": [-78.10523638748158, 36.7504390072132]}, "properties": {"osm_id": 702265373, "name": "VCU Health Systems"}}, {"type": "Feature", "geometry": {"type": "Point", "coordinates": [-78.1336737218573, 36.734103870351255]}, "properties": {"osm_id": 517087358, "name": "VCU Health Community Memorial Hospital"}}, {"type": "Feature", "geometry": {"type": "Point", "coordinates": [-79.17170919256203, 37.41706395160674]}, "properties": {"osm_id": 515361222, "name": "Centra Lynchburg General Hospital"}}, {"type": "Feature", "geometry": {"type": "Point", "coordinates": [-79.44080949056827, 37.778910214525375]}, "properties": {"osm_id": 44643156, "name": "Carilion Stonewall Jackson Hospital"}}, {"type": "Feature", "geometry": {"type": "Point", "coordinates": [-78.51253436604365, 38.870325766658816]}, "properties": {"osm_id": 517722471, "name": "Shenandoah Memorial Hospital"}}, {"type": "Feature", "geometry": {"type": "Point", "coordinates": [-78.44464526668364, 38.0229301675471]}, "properties": {"osm_id": 517826763, "name": "Sentara Martha Jefferson Hospital"}}, {"type": "Feature", "geometry": {"type": "Point", "coordinates": [-78.49936953294497, 38.03232934103008]}, "properties": {"osm_id": 517817443, "name": "University of Virginia Medical Center"}}, {"type": "Feature", "geometry": {"type": "Point", "coordinates": [-77.52626029480932, 37.512693977943016]}, "properties": {"osm_id": 517040263, "name": "Chippenham Hospital"}}, {"type": "Feature", "geometry": {"type": "Point", "coordinates": [-77.45086008778753, 37.57125092988387]}, "properties": {"osm_id": 45103241, "name": "Children's Hospital of Richmond at VCU Brook Road Campus"}}, {"type": "Feature", "geometry": {"type": "Point", "coordinates": [-77.43260231475323, 37.56907184081764]}, "properties": {"osm_id": 751144371, "name": "NorthSide Hospital"}}, {"type": "Feature", "geometry": {"type": "Point", "coordinates": [-77.42956482311699, 37.54021152755573]}, "properties": {"osm_id": 516930723, "name": "VCU Medical Center"}}, {"type": "Feature", "geometry": {"type": "Point", "coordinates": [-77.40671774902297, 37.54019382993022]}, "properties": {"osm_id": 516930722, "name": "Richmond Community Hospital"}}, {"type": "Feature", "geometry": {"type": "Point", "coordinates": [-77.40688755290391, 37.54024439422307]}, "properties": {"osm_id": 575124546, "name": null}}, {"type": "Feature", "geometry": {"type": "Point", "coordinates": [-77.29131020198783, 37.30800449530858]}, "properties": {"osm_id": 517073866, "name": "John Randolph Medical Center"}}, {"type": "Feature", "geometry": {"type": "Point", "coordinates": [-77.35903616461437, 37.187592693788346]}, "properties": {"osm_id": 693514823, "name": "Poplar Springs Hospital"}}, {"type": "Feature", "geometry": {"type": "Point", "coordinates": [-77.3596468838981, 37.1825033943896]}, "properties": {"osm_id": 517076669, "name": "Southside Regional Medical Center"}}, {"type": "Feature", "geometry": {"type": "Point", "coordinates": [-76.58359170182858, 37.20425265028166]}, "properties": {"osm_id": 693515461, "name": "Newport News Behavioral Health"}}, {"type": "Feature", "geometry": {"type": "Point", "coordinates": [-76.74045203619744, 37.33663739824117]}, "properties": {"osm_id": 368222774, "name": "Sentara Williamsburg Regional Medical Center"}}, {"type": "Feature", "geometry": {"type": "Point", "coordinates": [-76.54173225746882, 37.42003041587809]}, "properties": {"osm_id": 516510811, "name": "Riverside Walter Reed Hospital"}}, {"type": "Feature", "geometry": {"type": "Point", "coordinates": [-77.5259893526767, 37.623953430851266]}, "properties": {"osm_id": 710609544, "name": "Affiliated Dermatologists of Virginia"}}, {"type": "Feature", "geometry": {"type": "Point", "coordinates": [-77.52633095059667, 37.60211476968949]}, "properties": {"osm_id": 699332074, "name": "Reynolds Crossing West"}}, {"type": "Feature", "geometry": {"type": "Point", "coordinates": [-77.52324587258228, 37.60838653297412]}, "properties": {"osm_id": 710606067, "name": "Virginia Blood Services Emerywood Parkway"}}, {"type": "Feature", "geometry": {"type": "Point", "coordinates": [-77.52200565754515, 37.61051978354448]}, "properties": {"osm_id": 710606090, "name": "Medical Society of Virginia"}}, {"type": "Feature", "geometry": {"type": "Point", "coordinates": [-77.51886772379191, 37.60854985881115]}, "properties": {"osm_id": 704289089, "name": "Richmond Nephrology Associates"}}, {"type": "Feature", "geometry": {"type": "Point", "coordinates": [-77.51544963225503, 37.61157891394103]}, "properties": {"osm_id": 710604815, "name": "Chiropratic Health and Wellness Center"}}, {"type": "Feature", "geometry": {"type": "Point", "coordinates": [-77.4072305107462, 38.41549094801777]}, "properties": {"osm_id": 538654031, "name": "Stafford Hospital"}}, {"type": "Feature", "geometry": {"type": "Point", "coordinates": [-77.64190538355892, 38.820812142188444]}, "properties": {"osm_id": 331242167, "name": "Haymarket Medical Center"}}, {"type": "Feature", "geometry": {"type": "Point", "coordinates": [-77.381093122623, 38.88463982915967]}, "properties": {"osm_id": 323914910, "name": "Inova Fair Oaks Hospital"}}, {"type": "Feature", "geometry": {"type": "Point", "coordinates": [-77.36496381199524, 38.962353847816]}, "properties": {"osm_id": 69604316, "name": "Reston Hospital Center"}}, {"type": "Feature", "geometry": {"type": "Point", "coordinates": [-77.12759619525693, 38.88980850936451]}, "properties": {"osm_id": 498458585, "name": "Virginia Hospital Center"}}, {"type": "Feature", "geometry": {"type": "Point", "coordinates": [-76.30736818360275, 36.84053405485171]}, "properties": {"osm_id": 38028729, "name": "Harbor Point Behavioral Health Center"}}, {"type": "Feature", "geometry": {"type": "Point", "coordinates": [-76.24716571731194, 36.74688821529069]}, "properties": {"osm_id": 401000361, "name": "Chesapeake Regional Medical Center"}}, {"type": "Feature", "geometry": {"type": "Point", "coordinates": [-76.13132913120272, 36.86765698319881]}, "properties": {"osm_id": 516660897, "name": "Sentara Independence"}}, {"type": "Feature", "geometry": {"type": "Point", "coordinates": [-76.19003404826407, 36.85103123291499]}, "properties": {"osm_id": 37889430, "name": "Sentara Leigh Hospital"}}, {"type": "Feature", "geometry": {"type": "Point", "coordinates": [-76.3334062899597, 37.01639753874047]}, "properties": {"osm_id": 383562784, "name": "Hampton Veterans Administration Medical Center"}}, {"type": "Feature", "geometry": {"type": "Point", "coordinates": [-76.58125709334749, 36.773059629858395]}, "properties": {"osm_id": 469583540, "name": "Sentara Obici Hospital"}}, {"type": "Feature", "geometry": {"type": "Point", "coordinates": [-76.93721656491093, 36.6920965387429]}, "properties": {"osm_id": 516688678, "name": "Southampton Memorial Hospital"}}, {"type": "Feature", "geometry": {"type": "Point", "coordinates": [-77.5689892832528, 39.119876447333624]}, "properties": {"osm_id": 167269304, "name": "Inova Loudoun (Cornwall) Medical Campus"}}, {"type": "Feature", "geometry": {"type": "Point", "coordinates": [-82.06662866379114, 37.28503320813084]}, "properties": {"osm_id": 518440289, "name": "Buchanan General Hospital"}}, {"type": "Feature", "geometry": {"type": "Point", "coordinates": [-82.44915235698757, 37.16045864604072]}, "properties": {"osm_id": 518443641, "name": "Dickenson Community Hospital"}}, {"type": "Feature", "geometry": {"type": "Point", "coordinates": [-82.7545144759817, 36.877081301627484]}, "properties": {"osm_id": 518694483, "name": "Wellmont Lonesome Pine Hospital"}}, {"type": "Feature", "geometry": {"type": "Point", "coordinates": [-81.9934353000529, 36.71049458455564]}, "properties": {"osm_id": 972133657, "name": "Johnston Memorial Hospital"}}, {"type": "Feature", "geometry": {"type": "Point", "coordinates": [-81.91135211035267, 36.72225895838481]}, "properties": {"osm_id": 518479062, "name": "Johnston Memorial Hospital"}}, {"type": "Feature", "geometry": {"type": "Point", "coordinates": [-81.82008702231236, 37.0953158982281]}, "properties": {"osm_id": 518438913, "name": "Clinch Valley Medical Center"}}, {"type": "Feature", "geometry": {"type": "Point", "coordinates": [-80.7568362600613, 37.068416493793535]}, "properties": {"osm_id": 60616686, "name": "LewisGale Hospital Pulaski"}}, {"type": "Feature", "geometry": {"type": "Point", "coordinates": [-80.92375260616106, 36.67087478878174]}, "properties": {"osm_id": 517484622, "name": "Twin County Regional Hospital"}}, {"type": "Feature", "geometry": {"type": "Point", "coordinates": [-78.91405302775055, 36.712082566393285]}, "properties": {"osm_id": 517130637, "name": "Sentara Halifax Regional Hospital"}}, {"type": "Feature", "geometry": {"type": "Point", "coordinates": [-79.86660598393763, 36.69903528519547]}, "properties": {"osm_id": 517465462, "name": "Sovah Health - Martinsville"}}, {"type": "Feature", "geometry": {"type": "Point", "coordinates": [-80.02020711599253, 37.27449734178192]}, "properties": {"osm_id": 515671251, "name": "Salem Veterans Affairs Medical Center"}}, {"type": "Feature", "geometry": {"type": "Point", "coordinates": [-80.03018336016129, 37.2634346488722]}, "properties": {"osm_id": 44820052, "name": "LewisGale Medical Center"}}, {"type": "Feature", "geometry": {"type": "Point", "coordinates": [-79.14193581725351, 37.402434090912145]}, "properties": {"osm_id": 997485530, "name": null}}, {"type": "Feature", "geometry": {"type": "Point", "coordinates": [-78.9858811339943, 38.09564720823751]}, "properties": {"osm_id": 604006649, "name": "Augusta Health"}}, {"type": "Feature", "geometry": {"type": "Point", "coordinates": [-78.98670940253382, 38.09447821890582]}, "properties": {"osm_id": 401804206, "name": null}}, {"type": "Feature", "geometry": {"type": "Point", "coordinates": [-78.4688828078287, 38.662546220756106]}, "properties": {"osm_id": 1106556047, "name": null}}, {"type": "Feature", "geometry": {"type": "Point", "coordinates": [-77.80885413455812, 38.711908169866774]}, "properties": {"osm_id": 516459441, "name": "Fauquier Hospital"}}, {"type": "Feature", "geometry": {"type": "Point", "coordinates": [-77.45415554150769, 37.20503323907278]}, "properties": {"osm_id": 856912291, "name": "Hiram W. Davis Medical Center"}}, {"type": "Feature", "geometry": {"type": "Point", "coordinates": [-77.5133700583204, 37.5838777444343]}, "properties": {"osm_id": 45199200, "name": "Saint Mary's Hospital"}}, {"type": "Feature", "geometry": {"type": "Point", "coordinates": [-77.47295256149584, 37.55375020642259]}, "properties": {"osm_id": 517065151, "name": "Retreat Doctors' Hospital"}}, {"type": "Feature", "geometry": {"type": "Point", "coordinates": [-77.37117183171922, 37.25095547869741]}, "properties": {"osm_id": 683577155, "name": "TriCities ER"}}, {"type": "Feature", "geometry": {"type": "Point", "coordinates": [-76.66814549575311, 37.2509246845288]}, "properties": {"osm_id": 511418065, "name": "Riverside Doctors Hospital Williamsburg"}}, {"type": "Feature", "geometry": {"type": "Point", "coordinates": [-76.8786299994388, 37.901054680147105]}, "properties": {"osm_id": 516491080, "name": "Riverside Tappahannock Hospital"}}, {"type": "Feature", "geometry": {"type": "Point", "coordinates": [-77.3859588397378, 37.628813736439476]}, "properties": {"osm_id": 44882482, "name": "Memorial Regional Medical Center"}}, {"type": "Feature", "geometry": {"type": "Point", "coordinates": [-77.52522427370188, 37.63149252018033]}, "properties": {"osm_id": 44966334, "name": "Doctors' Parham Hospital"}}, {"type": "Feature", "geometry": {"type": "Point", "coordinates": [-77.54098364292499, 37.60366649118923]}, "properties": {"osm_id": 45907100, "name": "Henrico Doctors' Hospital"}}, {"type": "Feature", "geometry": {"type": "Point", "coordinates": [-77.48363817362038, 38.310619336365654]}, "properties": {"osm_id": 516485668, "name": "Mary Washington Hospital"}}, {"type": "Feature", "geometry": {"type": "Point", "coordinates": [-77.54256402962137, 38.94044179059088]}, "properties": {"osm_id": 311041319, "name": "Stone Springs Hospital Center"}}, {"type": "Feature", "geometry": {"type": "Point", "coordinates": [-77.48878388703395, 38.766343727168646]}, "properties": {"osm_id": 221920855, "name": "Behavioral Health"}}, {"type": "Feature", "geometry": {"type": "Point", "coordinates": [-77.48823297469305, 38.76738625911264]}, "properties": {"osm_id": 515739148, "name": "Prince William Medical Center"}}, {"type": "Feature", "geometry": {"type": "Point", "coordinates": [-77.31033933969465, 38.83803019916092]}, "properties": {"osm_id": 1119731412, "name": null}}, {"type": "Feature", "geometry": {"type": "Point", "coordinates": [-77.14283801943455, 38.705915770598786]}, "properties": {"osm_id": 142028799, "name": "Fort Belvoir Community Hospital"}}, {"type": "Feature", "geometry": {"type": "Point", "coordinates": [-77.22690387494129, 38.702907066429944]}, "properties": {"osm_id": 1156107637, "name": null}}, {"type": "Feature", "geometry": {"type": "Point", "coordinates": [-77.28584187080428, 38.636861480256506]}, "properties": {"osm_id": 516269207, "name": "Sentara Northern Virginia Medical Center"}}, {"type": "Feature", "geometry": {"type": "Point", "coordinates": [-77.10506517828635, 38.82243318097196]}, "properties": {"osm_id": 516253617, "name": "Inova Alexandria Hospital"}}, {"type": "Feature", "geometry": {"type": "Point", "coordinates": [-76.441498716542, 36.86885494297869]}, "properties": {"osm_id": 1022082686, "name": "Bon Secours Health Center at Harbour View"}}, {"type": "Feature", "geometry": {"type": "Point", "coordinates": [-76.34702654324525, 36.836856101083306]}, "properties": {"osm_id": 490448445, "name": "Bon Secours Maryview Medical Center"}}, {"type": "Feature", "geometry": {"type": "Point", "coordinates": [-76.02634109710158, 36.86503440867422]}, "properties": {"osm_id": 48734994, "name": "Virginia Beach Psychiatric Center"}}, {"type": "Feature", "geometry": {"type": "Point", "coordinates": [-76.28139114643321, 36.899308521919274]}, "properties": {"osm_id": 47625594, "name": "Bon Secours DePaul Medical Center"}}, {"type": "Feature", "geometry": {"type": "Point", "coordinates": [-76.48286673586902, 37.06338022881775]}, "properties": {"osm_id": 298161573, "name": "Riverside Regional Medical Center"}}, {"type": "Feature", "geometry": {"type": "Point", "coordinates": [-76.39044028188218, 37.05659009314441]}, "properties": {"osm_id": 516723446, "name": "Sentara CarePlex Hospital"}}, {"type": "Feature", "geometry": {"type": "Point", "coordinates": [-76.39036482995489, 37.05776959758819]}, "properties": {"osm_id": 388595616, "name": "Orthopaedic Hospital"}}, {"type": "Feature", "geometry": {"type": "Point", "coordinates": [-76.45421969784853, 37.12147877994924]}, "properties": {"osm_id": 778578096, "name": "Riverside Rehabilitation Hospital"}}, {"type": "Feature", "geometry": {"type": "Point", "coordinates": [-78.3878615, 36.66669849980795]}, "properties": {"osm_id": 9982567448, "name": "PATHS Boydton Medical Center"}}, {"type": "Feature", "geometry": {"type": "Point", "coordinates": [-78.17511519999998, 37.19224179987268]}, "properties": {"osm_id": 356564505, "name": "Piedmont Geriatric Hospital"}}, {"type": "Feature", "geometry": {"type": "Point", "coordinates": [-77.4305775, 37.542714899918884]}, "properties": {"osm_id": 10276277725, "name": "Adult Outpatient Pavilion"}}, {"type": "Feature", "geometry": {"type": "Point", "coordinates": [-77.3102616, 38.83811580010242]}, "properties": {"osm_id": 7337767657, "name": "INOVA Emergency Room"}}, {"type": "Feature", "geometry": {"type": "Point", "coordinates": [-77.2222053, 38.87815920010824]}, "properties": {"osm_id": 7143550380, "name": "Dominion Plastic Surgery"}}]}