{"type": "FeatureCollection", "features": [{"type": "Feature", "geometry": {"type": "Point", "coordinates": [-80.41194818562263, 37.187675425728465]}, "properties": {"osm_id": 76692183, "name": "LewisGale Hospital Montgomery", "operator": "LewisGale Regional Health System"}}, {"type": "Feature", "geometry": {"type": "Point", "coordinates": [-81.91135211035267, 36.72225895838481]}, "properties": {"osm_id": 518479062, "name": "Johnston Memorial Hospital", "operator": "Ballad Health"}}, {"type": "Feature", "geometry": {"type": "Point", "coordinates": [-81.82008702231236, 37.0953158982281]}, "properties": {"osm_id": 518438913, "name": "Clinch Valley Medical Center", "operator": null}}, {"type": "Feature", "geometry": {"type": "Point", "coordinates": [-81.0967845740161, 36.954697871123244]}, "properties": {"osm_id": 518397572, "name": "Wythe County Community Hospital", "operator": null}}, {"type": "Feature", "geometry": {"type": "Point", "coordinates": [-78.91405302775055, 36.712082566393285]}, "properties": {"osm_id": 517130637, "name": "Sentara Halifax Regional Hospital", "operator": "Sentara Healthcare"}}, {"type": "Feature", "geometry": {"type": "Point", "coordinates": [-79.86660598393763, 36.69903528519547]}, "properties": {"osm_id": 517465462, "name": "Sovah Health - Martinsville", "operator": "Sovah Health"}}, {"type": "Feature", "geometry": {"type": "Point", "coordinates": [-79.9415755810238, 37.25114903666278]}, "properties": {"osm_id": -7127531, "name": "Carilion Roanoke Memorial Hospital", "operator": "Carilion Clinic"}}, {"type": "Feature", "geometry": {"type": "Point", "coordinates": [-78.9858811339943, 38.09564720823751]}, "properties": {"osm_id": 604006649, "name": "Augusta Health", "operator": "Augusta Health"}}, {"type": "Feature", "geometry": {"type": "Point", "coordinates": [-78.85599826057943, 38.405000973249884]}, "properties": {"osm_id": 517778184, "name": "Sentara RMH Medical Center", "operator": "Sentara Healthcare"}}, {"type": "Feature", "geometry": {"type": "Point", "coordinates": [-78.51253436604365, 38.870325766658816]}, "properties": {"osm_id": 517722471, "name": "Shenandoah Memorial Hospital", "operator": "Valley Health"}}, {"type": "Feature", "geometry": {"type": "Point", "coordinates": [-78.4688828078287, 38.662546220756106]}, "properties": {"osm_id": 1106556047, "name": "Page Memorial Hospital", "operator": "Valley Health"}}, {"type": "Feature", "geometry": {"type": "Point", "coordinates": [-78.49936971359018, 38.03233156041574]}, "properties": {"osm_id": 517817443, "name": "University of Virginia Medical Center", "operator": "University of Virginia Health System"}}, {"type": "Feature", "geometry": {"type": "Point", "coordinates": [-77.18721660914062, 37.50614616951559]}, "properties": {"osm_id": 761314680, "name": "VCU Trauma Center", "operator": "VCU Health"}}, {"type": "Feature", "geometry": {"type": "Point", "coordinates": [-76.74045203619744, 37.33663739824117]}, "properties": {"osm_id": 368222774, "name": "Sentara Williamsburg Regional Medical Center", "operator": "Sentara Healthcare"}}, {"type": "Feature", "geometry": {"type": "Point", "coordinates": [-76.54173225746882, 37.42003041587809]}, "properties": {"osm_id": 516510811, "name": "Riverside Walter Reed Hospital", "operator": "Riverside Health System"}}, {"type": "Feature", "geometry": {"type": "Point", "coordinates": [-76.9784335131413, 37.546813176352224]}, "properties": {"osm_id": 604074882, "name": "Cumberland Hospital for Children and Adolescents", "operator": null}}, {"type": "Feature", "geometry": {"type": "Point", "coordinates": [-77.52522427370188, 37.63149252018033]}, "properties": {"osm_id": 44966334, "name": "Doctors' Parham Hospital", "operator": "HCA Virginia"}}, {"type": "Feature", "geometry": {"type": "Point", "coordinates": [-77.54098364292499, 37.60366649118923]}, "properties": {"osm_id": 45907100, "name": "Henrico Doctors' Hospital", "operator": "HCA Virginia"}}, {"type": "Feature", "geometry": {"type": "Point", "coordinates": [-77.50258450770848, 38.24707019565458]}, "properties": {"osm_id": 960767041, "name": null, "operator": null}}, {"type": "Feature", "geometry": {"type": "Point", "coordinates": [-77.54256402962137, 38.94044179059088]}, "properties": {"osm_id": 311041319, "name": "Stone Springs Hospital Center", "operator": "HCA Virginia"}}, {"type": "Feature", "geometry": {"type": "Point", "coordinates": [-77.381093122623, 38.88463982915967]}, "properties": {"osm_id": 323914910, "name": "Inova Fair Oaks Hospital", "operator": "Inova"}}, {"type": "Feature", "geometry": {"type": "Point", "coordinates": [-77.36496381199524, 38.962353847816]}, "properties": {"osm_id": 69604316, "name": "Reston Hospital Center", "operator": "HCA Virginia"}}, {"type": "Feature", "geometry": {"type": "Point", "coordinates": [-77.22793503004839, 38.85725911062716]}, "properties": {"osm_id": 516393904, "name": "Inova Fairfax Hospital", "operator": "Inova"}}, {"type": "Feature", "geometry": {"type": "Point", "coordinates": [-77.14283801943455, 38.705915770598786]}, "properties": {"osm_id": 142028799, "name": "Fort Belvoir Community Hospital", "operator": "Tricare"}}, {"type": "Feature", "geometry": {"type": "Point", "coordinates": [-77.10506517828635, 38.82243318097196]}, "properties": {"osm_id": 516253617, "name": "Inova Alexandria Hospital", "operator": "Inova"}}, {"type": "Feature", "geometry": {"type": "Point", "coordinates": [-75.72308470062009, 37.69763155772974]}, "properties": {"osm_id": 730430629, "name": "Riverside Shore Memorial Hospital", "operator": "Riverside Health System"}}, {"type": "Feature", "geometry": {"type": "Point", "coordinates": [-76.38755645951328, 37.70115269337161]}, "properties": {"osm_id": 516501602, "name": "Rappahannock General Hospital", "operator": "Bon Secours"}}, {"type": "Feature", "geometry": {"type": "Point", "coordinates": [-76.441498716542, 36.86885494297869]}, "properties": {"osm_id": 1022082686, "name": "Bon Secours Health Center at Harbour View", "operator": "Bon Secours"}}, {"type": "Feature", "geometry": {"type": "Point", "coordinates": [-76.34702654324525, 36.836856101083306]}, "properties": {"osm_id": 490448445, "name": "Bon Secours Maryview Medical Center", "operator": "Bon Secours"}}, {"type": "Feature", "geometry": {"type": "Point", "coordinates": [-76.30577179953885, 36.85852487796714]}, "properties": {"osm_id": 822796398, "name": null, "operator": null}}, {"type": "Feature", "geometry": {"type": "Point", "coordinates": [-76.30577179953885, 36.85852487796714]}, "properties": {"osm_id": -11269576, "name": "Children's Hospital of the King's Daughters", "operator": "Children's Hospital of the King's Daughters"}}, {"type": "Feature", "geometry": {"type": "Point", "coordinates": [-76.30937161214324, 36.86698225085713]}, "properties": {"osm_id": -11269576, "name": "Children's Hospital of the King's Daughters", "operator": "Children's Hospital of the King's Daughters"}}, {"type": "Feature", "geometry": {"type": "Point", "coordinates": [-76.30329761953479, 36.86258458511722]}, "properties": {"osm_id": -11269660, "name": "Sentara Norfolk General Hospital", "operator": "Sentara Healthcare"}}, {"type": "Feature", "geometry": {"type": "Point", "coordinates": [-76.30192583283322, 36.86209146502031]}, "properties": {"osm_id": -11269576, "name": "Children's Hospital of the King's Daughters", "operator": "Children's Hospital of the King's Daughters"}}, {"type": "Feature", "geometry": {"type": "Point", "coordinates": [-76.19003404826407, 36.85103123291499]}, "properties": {"osm_id": 37889430, "name": "Sentara Leigh Hospital", "operator": "Sentara Healthcare"}}, {"type": "Feature", "geometry": {"type": "Point", "coordinates": [-76.58125709334749, 36.773059629858395]}, "properties": {"osm_id": 469583540, "name": "Sentara Obici Hospital", "operator": "Sentara Healthcare"}}, {"type": "Feature", "geometry": {"type": "Point", "coordinates": [-77.5689892832528, 39.119876447333624]}, "properties": {"osm_id": 167269304, "name": "Inova Loudoun (Cornwall) Medical Campus", "operator": "Inova"}}, {"type": "Feature", "geometry": {"type": "Point", "coordinates": [-80.71282650835359, 37.33298093725413]}, "properties": {"osm_id": 518157076, "name": "Carilion Giles Community Hospital", "operator": "Carilion Clinic"}}, {"type": "Feature", "geometry": {"type": "Point", "coordinates": [-82.06662866379114, 37.28503320813084]}, "properties": {"osm_id": 518440289, "name": "Buchanan General Hospital", "operator": null}}, {"type": "Feature", "geometry": {"type": "Point", "coordinates": [-82.44915235698757, 37.16045864604072]}, "properties": {"osm_id": 518443641, "name": "Dickenson Community Hospital", "operator": "Ballad Health"}}, {"type": "Feature", "geometry": {"type": "Point", "coordinates": [-82.62548214546625, 36.94407759696349]}, "properties": {"osm_id": 518641254, "name": "Mountain View Regional Medical Center", "operator": "Wellmont Health System"}}, {"type": "Feature", "geometry": {"type": "Point", "coordinates": [-82.64221925114174, 36.933258677480076]}, "properties": {"osm_id": 518641248, "name": "Norton Community Hospital", "operator": "Ballad Health"}}, {"type": "Feature", "geometry": {"type": "Point", "coordinates": [-82.7545144759817, 36.877081301627484]}, "properties": {"osm_id": 518694483, "name": "Wellmont Lonesome Pine Hospital", "operator": "Wellmont Health System"}}, {"type": "Feature", "geometry": {"type": "Point", "coordinates": [-81.48929893967765, 37.123778349625475]}, "properties": {"osm_id": 518426210, "name": "Carilion Tazewell Community Hospital", "operator": "Carilion Clinic"}}, {"type": "Feature", "geometry": {"type": "Point", "coordinates": [-81.48846094001601, 36.85175210843132]}, "properties": {"osm_id": 515725979, "name": "Smyth County Community Hospital", "operator": "Ballad Health"}}, {"type": "Feature", "geometry": {"type": "Point", "coordinates": [-80.7568362600613, 37.068416493793535]}, "properties": {"osm_id": 60616686, "name": "LewisGale Hospital Pulaski", "operator": "HCA Virginia"}}, {"type": "Feature", "geometry": {"type": "Point", "coordinates": [-80.50517137910124, 37.08855928447461]}, "properties": {"osm_id": 518149748, "name": "Carilion New River Valley Medical Center", "operator": "Carilion Clinic"}}, {"type": "Feature", "geometry": {"type": "Point", "coordinates": [-80.03018336016129, 37.2634346488722]}, "properties": {"osm_id": 44820052, "name": "LewisGale Medical Center", "operator": "HCA Virginia"}}, {"type": "Feature", "geometry": {"type": "Point", "coordinates": [-79.51748874239574, 37.35196224284575]}, "properties": {"osm_id": 604007665, "name": "Centra Bedford Memorial Hospital", "operator": "Centra Health"}}, {"type": "Feature", "geometry": {"type": "Point", "coordinates": [-79.17170919256203, 37.41706395160674]}, "properties": {"osm_id": 515361222, "name": "Centra Lynchburg General Hospital", "operator": "Centra Health"}}, {"type": "Feature", "geometry": {"type": "Point", "coordinates": [-79.18746716235643, 37.437570807229626]}, "properties": {"osm_id": 515361224, "name": "Centra Virginia Baptist Hospital", "operator": "Centra Health"}}, {"type": "Feature", "geometry": {"type": "Point", "coordinates": [-79.88123964264133, 37.79202890676059]}, "properties": {"osm_id": 518020218, "name": "LewisGale Hospital Alleghany", "operator": "LewisGale Regional Health System"}}, {"type": "Feature", "geometry": {"type": "Point", "coordinates": [-79.83177806775149, 37.99253841177725]}, "properties": {"osm_id": 604096538, "name": "Bath Community Hospital", "operator": null}}, {"type": "Feature", "geometry": {"type": "Point", "coordinates": [-78.01325952685846, 38.45523820509517]}, "properties": {"osm_id": 517749692, "name": "Culpeper Medical Center", "operator": "University of Virginia Health System"}}, {"type": "Feature", "geometry": {"type": "Point", "coordinates": [-78.44464526668364, 38.0229301675471]}, "properties": {"osm_id": 517826763, "name": "Sentara Martha Jefferson Hospital", "operator": "Sentara Healthcare"}}, {"type": "Feature", "geometry": {"type": "Point", "coordinates": [-78.52561896586838, 38.024459172561464]}, "properties": {"osm_id": 157034592, "name": "UVA HealthSouth Rehabilitation Hospital", "operator": "Encompass Health"}}, {"type": "Feature", "geometry": {"type": "Point", "coordinates": [-78.40413504679407, 37.30272524226797]}, "properties": {"osm_id": 82881605, "name": "Centra Southside Community Hospital", "operator": "Centra Health"}}, {"type": "Feature", "geometry": {"type": "Point", "coordinates": [-77.65953579458973, 37.46678185722362]}, "properties": {"osm_id": 236067321, "name": "Bon Secours Saint Francis Medical Center", "operator": "Bon Secours"}}, {"type": "Feature", "geometry": {"type": "Point", "coordinates": [-77.52626029480932, 37.512693977943016]}, "properties": {"osm_id": 517040263, "name": "Chippenham Hospital", "operator": "HCA Virginia"}}, {"type": "Feature", "geometry": {"type": "Point", "coordinates": [-77.5133700583204, 37.5838777444343]}, "properties": {"osm_id": 45199200, "name": "Saint Mary's Hospital", "operator": "Bon Secours"}}, {"type": "Feature", "geometry": {"type": "Point", "coordinates": [-77.45086008778753, 37.57125092988387]}, "properties": {"osm_id": 45103241, "name": "Children's Hospital of Richmond at VCU Brook Road Campus", "operator": null}}, {"type": "Feature", "geometry": {"type": "Point", "coordinates": [-77.40671774902297, 37.54019382993022]}, "properties": {"osm_id": 516930722, "name": "Richmond Community Hospital", "operator": "Bon Secours"}}, {"type": "Feature", "geometry": {"type": "Point", "coordinates": [-77.37117183171922, 37.25095547869741]}, "properties": {"osm_id": 683577155, "name": "Prince George ER", "operator": "HCA Virginia"}}, {"type": "Feature", "geometry": {"type": "Point", "coordinates": [-77.3596468838981, 37.1825033943896]}, "properties": {"osm_id": 517076669, "name": "Bon Secours - Southside Regional Medical Center", "operator": "Bon Secours"}}, {"type": "Feature", "geometry": {"type": "Point", "coordinates": [-76.66814549575311, 37.2509246845288]}, "properties": {"osm_id": 511418065, "name": "Riverside Doctors Hospital Williamsburg", "operator": "Riverside Health System"}}, {"type": "Feature", "geometry": {"type": "Point", "coordinates": [-76.8786299994388, 37.901054680147105]}, "properties": {"osm_id": 516491080, "name": "Riverside Tappahannock Hospital", "operator": "Riverside Health System"}}, {"type": "Feature", "geometry": {"type": "Point", "coordinates": [-77.39900755850194, 37.651988936632634]}, "properties": {"osm_id": 628662916, "name": "Hanover Emergency Center", "operator": "HCA Virginia"}}, {"type": "Feature", "geometry": {"type": "Point", "coordinates": [-77.4072305107462, 38.41549094801777]}, "properties": {"osm_id": 538654031, "name": "Stafford Hospital", "operator": "Mary Washington Healthcare"}}, {"type": "Feature", "geometry": {"type": "Point", "coordinates": [-77.64190538355892, 38.820812142188444]}, "properties": {"osm_id": 331242167, "name": "Haymarket Medical Center", "operator": "University of Virginia Health System"}}, {"type": "Feature", "geometry": {"type": "Point", "coordinates": [-77.48823297469305, 38.76738625911264]}, "properties": {"osm_id": 515739148, "name": "Prince William Medical Center", "operator": "University of Virginia Health System"}}, {"type": "Feature", "geometry": {"type": "Point", "coordinates": [-77.35690994222675, 38.96545191769746]}, "properties": {"osm_id": 79613314, "name": "Inova Medical Center - Reston", "operator": "Inova"}}, {"type": "Feature", "geometry": {"type": "Point", "coordinates": [-77.07698918515426, 38.739612386404865]}, "properties": {"osm_id": 516261735, "name": "Inova Mount Vernon Hospital", "operator": "Inova"}}, {"type": "Feature", "geometry": {"type": "Point", "coordinates": [-76.51115234128167, 37.14431728408823]}, "properties": {"osm_id": 50945901, "name": "Bon Secours Mary Immaculate Hospital", "operator": "Bon Secours"}}, {"type": "Feature", "geometry": {"type": "Point", "coordinates": [-76.30102064396957, 36.863555535670336]}, "properties": {"osm_id": -11269576, "name": "Children's Hospital of the King's Daughters", "operator": "Children's Hospital of the King's Daughters"}}, {"type": "Feature", "geometry": {"type": "Point", "coordinates": [-76.30211394041079, 36.86406025306279]}, "properties": {"osm_id": -11269576, "name": "Children's Hospital of the King's Daughters", "operator": "Children's Hospital of the King's Daughters"}}, {"type": "Feature", "geometry": {"type": "Point", "coordinates": [-76.30333349461579, 36.86449654593918]}, "properties": {"osm_id": -11269576, "name": "Children's Hospital of the King's Daughters", "operator": "Children's Hospital of the King's Daughters"}}, {"type": "Feature", "geometry": {"type": "Point", "coordinates": [-76.13132913120272, 36.86765698319881]}, "properties": {"osm_id": 516660897, "name": "Sentara Independence", "operator": "Sentara Healthcare"}}, {"type": "Feature", "geometry": {"type": "Point", "coordinates": [-76.09747600567705, 36.77582241732641]}, "properties": {"osm_id": 412279436, "name": "Sentara Princess Anne Hospital", "operator": "Sentara Healthcare"}}, {"type": "Feature", "geometry": {"type": "Point", "coordinates": [-76.35751315088326, 37.07398254447147]}, "properties": {"osm_id": 344024165, "name": "Langley Hospital", "operator": "633D Medical Group"}}, {"type": "Feature", "geometry": {"type": "Point", "coordinates": [-76.28139114643321, 36.899308521919274]}, "properties": {"osm_id": 47625594, "name": "Bon Secours DePaul Medical Center", "operator": "Bon Secours"}}, {"type": "Feature", "geometry": {"type": "Point", "coordinates": [-76.48425810147991, 37.08446991831688]}, "properties": {"osm_id": 325122946, "name": "Sentara Port Warwick", "operator": "Sentara Healthcare"}}, {"type": "Feature", "geometry": {"type": "Point", "coordinates": [-77.5375135963289, 36.70172104102793]}, "properties": {"osm_id": 517084933, "name": "Southern Virginia Regional Medical Center", "operator": "Bon Secours"}}, {"type": "Feature", "geometry": {"type": "Point", "coordinates": [-77.47770177680677, 39.07442811494588]}, "properties": {"osm_id": 515950443, "name": "Inova Loudoun Hospital", "operator": "Inova"}}, {"type": "Feature", "geometry": {"type": "Point", "coordinates": [-78.19190352163595, 39.19582072512831]}, "properties": {"osm_id": -2834661, "name": "ValleyHealth Winchester Medical Center", "operator": "Valley Health"}}, {"type": "Feature", "geometry": {"type": "Point", "coordinates": [-82.0782653611275, 36.898456158917256]}, "properties": {"osm_id": 518462304, "name": "Russell County Hospital", "operator": "Ballad Health"}}, {"type": "Feature", "geometry": {"type": "Point", "coordinates": [-81.9934353000529, 36.71049458455564]}, "properties": {"osm_id": 972133657, "name": "Surgery Center - Abingdon on Campus Drive", "operator": "Ballad Health"}}, {"type": "Feature", "geometry": {"type": "Point", "coordinates": [-80.92375260616106, 36.67087478878174]}, "properties": {"osm_id": 517484622, "name": "Twin County Regional Hospital", "operator": "Twin County Regional Healthcare"}}, {"type": "Feature", "geometry": {"type": "Point", "coordinates": [-78.10523638748158, 36.7504390072132]}, "properties": {"osm_id": 702265373, "name": "VCU Health Community Memorial Hospital", "operator": "VCU Health"}}, {"type": "Feature", "geometry": {"type": "Point", "coordinates": [-78.1336737218573, 36.734103870351255]}, "properties": {"osm_id": 517087358, "name": "VCU Health Community Memorial Hospital", "operator": "VCU Health"}}, {"type": "Feature", "geometry": {"type": "Point", "coordinates": [-79.4048206572232, 36.57747252719956]}, "properties": {"osm_id": 517433169, "name": "Sovah Health - Danville", "operator": "Sovah Health"}}, {"type": "Feature", "geometry": {"type": "Point", "coordinates": [-79.89028608862598, 36.993710375475054]}, "properties": {"osm_id": 517464447, "name": "Carilion Franklin Memorial Hospital", "operator": "Carilion Clinic"}}, {"type": "Feature", "geometry": {"type": "Point", "coordinates": [-79.9396998674701, 37.265346868915444]}, "properties": {"osm_id": 515613354, "name": "Carilion Roanoke Community Hospital", "operator": "Carilion Clinic"}}, {"type": "Feature", "geometry": {"type": "Point", "coordinates": [-79.44080949056827, 37.778910214525375]}, "properties": {"osm_id": 44643156, "name": "Carilion Stonewall Jackson Hospital", "operator": "Carilion Clinic"}}, {"type": "Feature", "geometry": {"type": "Point", "coordinates": [-78.15318807404643, 38.919950287339844]}, "properties": {"osm_id": 1104937822, "name": "Warren Memorial Hospital", "operator": "Valley Health"}}, {"type": "Feature", "geometry": {"type": "Point", "coordinates": [-77.80885413455812, 38.711908169866774]}, "properties": {"osm_id": 516459441, "name": "Fauquier Hospital", "operator": "Fauquier Health System"}}, {"type": "Feature", "geometry": {"type": "Point", "coordinates": [-77.67830130000239, 37.40231680738959]}, "properties": {"osm_id": 683572790, "name": "HCA - Swift Creek Emergency Center", "operator": "HCA Virginia"}}, {"type": "Feature", "geometry": {"type": "Point", "coordinates": [-77.5953334064144, 37.51080671399724]}, "properties": {"osm_id": 517046782, "name": "Johnston-Willis Hospital", "operator": "CJW Medical Center"}}, {"type": "Feature", "geometry": {"type": "Point", "coordinates": [-77.47295256149584, 37.55375020642259]}, "properties": {"osm_id": 517065151, "name": "Retreat Doctors' Hospital", "operator": "HCA Virginia"}}, {"type": "Feature", "geometry": {"type": "Point", "coordinates": [-77.42956482311699, 37.54021152755573]}, "properties": {"osm_id": 516930723, "name": "VCU Medical Center", "operator": "VCU Health"}}, {"type": "Feature", "geometry": {"type": "Point", "coordinates": [-77.29131020198783, 37.30800449530858]}, "properties": {"osm_id": 517073866, "name": "TriCities Hospital", "operator": "HCA Virginia"}}, {"type": "Feature", "geometry": {"type": "Point", "coordinates": [-77.3859588397378, 37.628813736439476]}, "properties": {"osm_id": 44882482, "name": "Memorial Regional Medical Center", "operator": "Bon Secours"}}, {"type": "Feature", "geometry": {"type": "Point", "coordinates": [-77.49601778754314, 38.217733979743336]}, "properties": {"osm_id": 516489434, "name": "Spotsylvania Regional Medical Center", "operator": "HCA Virginia"}}, {"type": "Feature", "geometry": {"type": "Point", "coordinates": [-77.48363817362038, 38.310619336365654]}, "properties": {"osm_id": 516485668, "name": "Mary Washington Hospital", "operator": "Mary Washington Healthcare"}}, {"type": "Feature", "geometry": {"type": "Point", "coordinates": [-77.12759619525693, 38.88980850936451]}, "properties": {"osm_id": 498458585, "name": "Virginia Hospital Center", "operator": null}}, {"type": "Feature", "geometry": {"type": "Point", "coordinates": [-77.22690387494129, 38.702907066429944]}, "properties": {"osm_id": 1156107637, "name": null, "operator": null}}, {"type": "Feature", "geometry": {"type": "Point", "coordinates": [-77.28584187080428, 38.636861480256506]}, "properties": {"osm_id": 516269207, "name": "Sentara Northern Virginia Medical Center", "operator": "Sentara Healthcare"}}, {"type": "Feature", "geometry": {"type": "Point", "coordinates": [-76.24716571731194, 36.74688821529069]}, "properties": {"osm_id": 401000361, "name": "Chesapeake Regional Medical Center", "operator": "Chesapeake Regional Healthcare"}}, {"type": "Feature", "geometry": {"type": "Point", "coordinates": [-76.20600113409785, 36.86711808210063]}, "properties": {"osm_id": 397878148, "name": "Lake Taylor Transitional Care Hospital", "operator": null}}, {"type": "Feature", "geometry": {"type": "Point", "coordinates": [-76.48286673586902, 37.06338022881775]}, "properties": {"osm_id": 298161573, "name": "Riverside Regional Medical Center", "operator": "Riverside Health System"}}, {"type": "Feature", "geometry": {"type": "Point", "coordinates": [-76.39044028188218, 37.05659009314441]}, "properties": {"osm_id": 516723446, "name": "Sentara CarePlex Hospital", "operator": "Sentara Healthcare"}}, {"type": "Feature", "geometry": {"type": "Point", "coordinates": [-76.39036482995489, 37.05776959758819]}, "properties": {"osm_id": 388595616, "name": "Orthopaedic Hospital", "operator": "Sentara Healthcare"}}, {"type": "Feature", "geometry": {"type": "Point", "coordinates": [-76.93721656491093, 36.6920965387429]}, "properties": {"osm_id": 516688678, "name": "Southampton Memorial Hospital", "operator": "Bon Secours"}}, {"type": "Feature", "geometry": {"type": "Point", "coordinates": [-77.4305775, 37.542714899918884]}, "properties": {"osm_id": 10276277725, "name": "Adult Outpatient Pavilion", "operator": "VCU Health"}}, {"type": "Feature", "geometry": {"type": "Point", "coordinates": [-77.56756639999999, 37.54916449991976]}, "properties": {"osm_id": 10830599610, "name": "Urosurgical Center Of Richmond", "operator": null}}, {"type": "Feature", "geometry": {"type": "Point", "coordinates": [-77.3102616, 38.83811580010242]}, "properties": {"osm_id": 7337767657, "name": "INOVA Emergency Room", "operator": "Inova"}}, {"type": "Feature", "geometry": {"type": "Point", "coordinates": [-77.4907328, 37.590626099925366]}, "properties": {"osm_id": 10830680979, "name": "Select Specialty Hospital", "operator": "Select Specialty Hospital"}}]}